[
  {
    "name": "ALBERTON SPCA",
    "telephone": "011 907 1568",
    "emergency_telephone": "065 616 9004",
    "address": "General Albert Park 29 Heidelberg Road, Lincoln Road, Alberton, 1449",
    "lat": -26.2872621109,
    "lon": 28.1258542996,
    "province": "Gauteng",
    "website": "http://spcaalberton.org.za/",
    "pk": "47105147-4050-48af-b684-028811220b74"
  },
  {
    "name": "AMAHLATHI SPCA (Stutterheim)",
    "telephone": "043 683 1414",
    "emergency_telephone": "072 356 4565",
    "address": "Xholorha, Stutterheim, 4930",
    "lat": -32.565722335,
    "lon": 27.3963212924,
    "province": "Eastern Cape",
    "website": null,
    "pk": "6156d22a-eb70-46da-8b39-e4d39f6983a5"
  },
  {
    "name": "AMANZIMTOTI SPCA",
    "telephone": "031 904 2424/5",
    "emergency_telephone": "072 122 7288",
    "address": "1 Nyati Rd, Athlone Park, eManzimtoti, 4126",
    "lat": -30.0062690904,
    "lon": 30.9207469416,
    "province": "KwaZulu-Natal",
    "website": "https://www.spcatoti.co.za/",
    "pk": "a94b24b0-b832-425e-9ab0-e06e7f9c0502"
  },
  {
    "name": "ASSISI SPCA (Humansdorp)",
    "telephone": "066 297 9010",
    "emergency_telephone": "073 121 8963",
    "address": "St Francis Dr, Humansdorp, 6300",
    "lat": -34.0368268693,
    "lon": 24.7833184943,
    "province": "Eastern Cape",
    "website": "http://www.spcaassisi.com/",
    "pk": "47ce0d02-8b04-412b-814c-1b4675257ffb"
  },
  {
    "name": "BALLITO SPCA (DOLPHIN COAST - Branch of DURBAN & COAST SPCA)",
    "telephone": "087 550 0512",
    "emergency_telephone": null,
    "address": "22 Sandra Rd, Ballito, 4420",
    "lat": -29.543882073,
    "lon": 31.2144864856,
    "province": "KwaZulu-Natal",
    "website": null,
    "pk": "f3875393-1c30-41c2-8d67-362937adcc0d"
  },
  {
    "name": "BEAUFORT WEST SPCA (KAROO)",
    "telephone": "072 847 7312",
    "emergency_telephone": "072 847 7312",
    "address": "cnr Grimbeeck & Jooste Street, Beaufort West, 6970",
    "lat": -32.369586,
    "lon": 22.592221,
    "province": "Western Cape",
    "website": null,
    "pk": "a16ba824-b790-47d9-a1b8-6db735373527"
  },
  {
    "name": "BENONI SPCA",
    "telephone": "011 894 2814/5",
    "emergency_telephone": "073 511 2261",
    "address": "3-2, Klein St, Lakefield, Benoni, 1501",
    "lat": -26.178064,
    "lon": 28.289333,
    "province": "Gauteng",
    "website": null,
    "pk": "c4afadaf-dfb5-4ab4-8352-149d51d4aa6c"
  },
  {
    "name": "BETHAL SPCA",
    "telephone": "017 647 5360 / 066 397 1630",
    "emergency_telephone": "072 573 3122",
    "address": "Jabulani Selepe Street, Bethal, 2309",
    "lat": -26.451179,
    "lon": 29.467527,
    "province": "Mpumalanga",
    "website": null,
    "pk": "6d5979e9-a90d-4159-a4a6-c327dae8c15a"
  },
  {
    "name": "BETHLEHEM SPCA",
    "telephone": "058 303 3998",
    "emergency_telephone": "083 629 6403",
    "address": "4 Witteberg St, Bethlehem, 9701",
    "lat": -28.214165,
    "lon": 28.299165,
    "province": "Freestate",
    "website": null,
    "pk": "67009a1b-5c01-4e35-9130-566f7b8dd479"
  },
  {
    "name": "BLOEMFONTEIN SPCA",
    "telephone": "051 447 3801",
    "emergency_telephone": "078 322 8332",
    "address": "Mcgregor St, White City, Bloemfontein, 9323",
    "lat": -29.122651,
    "lon": 26.238812,
    "province": "Freestate",
    "website": "https://bloemfonteinspca.co.za/",
    "pk": "297094c5-81fa-4b7e-a55d-aa840c8c35c0"
  },
  {
    "name": "BOKSBURG SPCA",
    "telephone": "011 916 5906/7",
    "emergency_telephone": "083 763 6311",
    "address": "cnr Kruger Street & Railway Street, Boksburg, 1459",
    "lat": -26.2161579566,
    "lon": 28.2630434745,
    "province": "Gauteng",
    "website": null,
    "pk": "f7ba0c2f-628b-4567-99cd-02722e6a253e"
  },
  {
    "name": "BRAKPAN SPCA",
    "telephone": "011 742 2007",
    "emergency_telephone": "083 696 9052",
    "address": "96 Denne Rd, Witpoortjie 117-Ir, Brakpan, 1543",
    "lat": -26.2808536173,
    "lon": 28.3515267078,
    "province": "Gauteng",
    "website": "https://www.brakpanspca.co.za/",
    "pk": "156a3330-8856-4428-b5db-c269f000d27e"
  },
  {
    "name": "CAPE OF GOOD HOPE SPCA",
    "telephone": "021 700 4140",
    "emergency_telephone": "083 326 1604",
    "address": "cnr 1st Ave & First Rd, Grassy Park, Cape Town, 8000",
    "lat": -34.0409504433,
    "lon": 18.4990058917,
    "province": "Western Cape",
    "website": "http://www.capespca.co.za/",
    "pk": "a2c421f2-d4a0-4340-94fd-8ff804b07a06"
  },
  {
    "name": "CARLETONVILLE SPCA",
    "telephone": "018 788 6262",
    "emergency_telephone": "064 752 6035",
    "address": "Beerster St, Oberholzer, Carletonville, 2499",
    "lat": -26.3395635604,
    "lon": 27.3915133236,
    "province": "Gauteng",
    "website": null,
    "pk": "ea9dd23a-68dd-45b2-a216-4ab01ec27bc3"
  },
  {
    "name": "DUNDEE & DISTRICT SPCA",
    "telephone": "034 212 2851",
    "emergency_telephone": "072 949 6235",
    "address": "14 Watt Rd, Dundee, 3000",
    "lat": -28.1698370907,
    "lon": 30.2530818638,
    "province": "KwaZulu-Natal",
    "website": null,
    "pk": "04d8bfc1-a631-4b4c-a098-f7ae03e3fbfc"
  },
  {
    "name": "DURBAN & COAST SPCA",
    "telephone": "031 579 6500",
    "emergency_telephone": "083 212 6103",
    "address": "Springfield Park, 2 Willowfield Cres, Sea Cow Lake, Durban, 4001",
    "lat": -29.8037274694,
    "lon": 30.9936727045,
    "province": "KwaZulu-Natal",
    "website": "http://www.spcadbn.org.za/",
    "pk": "c0054c53-c8aa-4124-a7e4-ba379028de4d"
  },
  {
    "name": "EAST LONDON SPCA",
    "telephone": "043 745 1441",
    "emergency_telephone": null,
    "address": "Main Rd, Amalinda, East London, 5247",
    "lat": -32.9739003205,
    "lon": 27.8540788064,
    "province": "Eastern Cape",
    "website": null,
    "pk": "6c1c114d-3f67-43df-98b0-6f2fadf02814"
  },
  {
    "name": "EDENVALE SPCA",
    "telephone": "011 974 9387",
    "emergency_telephone": "072 183 9794",
    "address": "Bhacus Road, Sebenza, Edenvale, 1609",
    "lat": -26.1290927332,
    "lon": 28.1853008105,
    "province": "Gauteng",
    "website": "http://www.edenvalespca.co.za/",
    "pk": "b97fbcb0-d217-4640-a92d-78a579edcfd9"
  },
  {
    "name": "EMPANGENI SPCA",
    "telephone": "071 174 4746",
    "emergency_telephone": "083 482 3866",
    "address": "Eshowe St, Empangeni Central, Empangeni, 3880",
    "lat": -28.7234140939,
    "lon": 31.8358675201,
    "province": "KwaZulu-Natal",
    "website": "https://www.empangenispca.co.za/",
    "pk": "e30dd8a0-e873-47fb-bca9-88b1469d6e8a"
  },
  {
    "name": "ESHOWE SPCA",
    "telephone": "087 802 1737",
    "emergency_telephone": "078 306 1439",
    "address": "Unnamed Road, Eshowe, 3815",
    "lat": -28.8904319838,
    "lon": 31.441484028,
    "province": "KwaZulu-Natal",
    "website": null,
    "pk": "bb52b7a0-c653-45e7-b04e-036a42225e09"
  },
  {
    "name": "FRANSCHHOEK SPCA",
    "telephone": "083 745 5344",
    "emergency_telephone": "083 745 5344",
    "address": "6 La Provence St, Le Roux, Franschhoek, 7690",
    "lat": -33.8946038779,
    "lon": 19.1044207262,
    "province": "Western Cape",
    "website": "http://spcafhk.co.za/",
    "pk": "ac5c71a8-8d3c-492a-b707-fbf822ac6323"
  },
  {
    "name": "GARDEN ROUTE SPCA - GEORGE",
    "telephone": "044 878 1990/3",
    "emergency_telephone": "082 378 7384",
    "address": "Ossie Urbanweg, George, 6529",
    "lat": -33.9881155689,
    "lon": 22.4479290102,
    "province": "Western Cape",
    "website": "http://www.grspca.co.za/",
    "pk": "28c6e325-3089-455c-955f-fdc5e3b64cd9"
  },
  {
    "name": "GARDEN ROUTE SPCA - MOSSEL BAY BRANCH",
    "telephone": "0446930824",
    "emergency_telephone": null,
    "address": "18 Bill Jeffery St, Boplaas, Mossel Bay, 6506",
    "lat": -34.1817878324,
    "lon": 22.0994767955,
    "province": "Western Cape",
    "website": null,
    "pk": "a9e9e834-ef83-4009-b0c5-548f04440f2a"
  },
  {
    "name": "GERMISTON & BEDFORDVIEW SPCA",
    "telephone": "011 825 5033",
    "emergency_telephone": "081 399 1781",
    "address": "12 Junction Rd, Elandsfontein 90-Ir, Germiston, 1400",
    "lat": -26.2082255614,
    "lon": 28.1529082707,
    "province": "Gauteng",
    "website": null,
    "pk": "b3bfa359-a47a-4ccc-926b-0e2805594bfb"
  },
  {
    "name": "GRAHAMSTOWN SPCA",
    "telephone": "046 622 3233",
    "emergency_telephone": "064 820 8496",
    "address": "Old Bay Road, Makhanda, 6139",
    "lat": -33.3193647225,
    "lon": 26.4982210069,
    "province": "Eastern Cape",
    "website": null,
    "pk": "dd24ba8a-1cd0-4248-9191-98cbe7cc256a"
  },
  {
    "name": "GREYTOWN SPCA",
    "telephone": "072 096 9634",
    "emergency_telephone": "072 096 9634",
    "address": "Whinstone Farm, 1 R74, Greytown, 3250",
    "lat": -29.0494296699,
    "lon": 30.546301545,
    "province": "KwaZulu-Natal",
    "website": null,
    "pk": "934aa76e-d06c-4cdb-ae0c-b650156c171a"
  },
  {
    "name": "HEIDELBERG SPCA",
    "telephone": "016 342 4114",
    "emergency_telephone": "071 994 9960",
    "address": "1 Retief St, Heidelberg, Heidelberg - GP, 1441",
    "lat": -26.5009216698,
    "lon": 28.3703319836,
    "province": "Gauteng",
    "website": "http://heidelbergspca.co.za/",
    "pk": "347024af-6f05-48ec-8b39-9367aead5606"
  },
  {
    "name": "JOHANNESBURG SPCA",
    "telephone": "011 681 3600",
    "emergency_telephone": "083 604 1172",
    "address": "5 Benray Rd, Reuven, Johannesburg, 2091",
    "lat": -26.2357249829,
    "lon": 28.0296814593,
    "province": "Gauteng",
    "website": "http://www.jhbspca.co.za/",
    "pk": "deb0cd5d-32fc-4260-8422-4c4028fc23c0"
  },
  {
    "name": "KEMPTON PARK SPCA",
    "telephone": "011 975 6537/8",
    "emergency_telephone": "079 509 7859",
    "address": "130 Fitter Rd, Spartan, Kempton Park, 1620",
    "lat": -26.1201024847,
    "lon": 28.2109046752,
    "province": "Gauteng",
    "website": "http://www.kemptonspca.co.za/",
    "pk": "3b0e26a8-4116-4667-b574-8e4542b1850f"
  },
  {
    "name": "KIMBERLEY SPCA",
    "telephone": "053 831 7625",
    "emergency_telephone": "082 376 7679",
    "address": "Molyneaux Rd, Cassandra, Kimberley, 8301",
    "lat": -28.7497805301,
    "lon": 24.7955538732,
    "province": "Northern Cape",
    "website": "https://kimberleyspca.com/",
    "pk": "8d3c256f-e5fb-4fb0-90cf-08edd817b1a0"
  },
  {
    "name": "KING WILLIAM'S TOWN SPCA",
    "telephone": "043 050 5169",
    "emergency_telephone": "082 255 4991",
    "address": "Old Stutterheim Road, Qonce, 5601",
    "lat": -32.8464388598,
    "lon": 27.3795021763,
    "province": "Eastern Cape",
    "website": null,
    "pk": "f70da52f-9a59-4bfe-affc-24da82151582"
  },
  {
    "name": "KLOOF & HIGHWAY SPCA",
    "telephone": "031 764 1212/3",
    "emergency_telephone": "073 335 9322",
    "address": "29 Village Rd, Kloof, 3610",
    "lat": -29.7978395262,
    "lon": 30.8296305305,
    "province": "KwaZulu-Natal",
    "website": "http://www.kloofspca.co.za/",
    "pk": "78a0ca37-4bdb-423f-87d6-20c47b8f67a6"
  },
  {
    "name": "KROONSTAD SPCA",
    "telephone": "056 110 0041",
    "emergency_telephone": "071 271 1731",
    "address": "Kraalkop, Maokeng Rural, Maokeng, 9500",
    "lat": -27.6644837184,
    "lon": 27.2561426017,
    "province": "Freestate",
    "website": null,
    "pk": "65e32758-3700-4451-9180-fb3c5cd72a56"
  },
  {
    "name": "LEPHALALE SPCA (ELLISRAS)",
    "telephone": "079 398 6784",
    "emergency_telephone": "078 499 2645",
    "address": "1443, Chris Hani Ave, Lephalale, 0555",
    "lat": -23.670282764,
    "lon": 27.7048451881,
    "province": "Limpopo",
    "website": null,
    "pk": "c415b95c-5a6d-4678-93d8-e1e0f9d63ee0"
  },
  {
    "name": "LETABA SPCA (TZANEEN)",
    "telephone": "015 307 2611",
    "emergency_telephone": "",
    "address": "1 Jubilee Rd, Hamaboya, Tzaneen, 2029",
    "lat": -23.8550066854,
    "lon": 30.1530011138,
    "province": "Limpopo",
    "website": "http://www.letabaspca-dbv.co.za/",
    "pk": "33e5cd09-e03d-4769-b5cb-c6c4d0069019"
  },
  {
    "name": "LOUIS TRICHARDT SPCA",
    "telephone": "082 965 5151",
    "emergency_telephone": null,
    "address": "121 Commercial St, Louis Trichardt, 0922",
    "lat": -23.0550343039,
    "lon": 29.9178328511,
    "province": "Limpopo",
    "website": null,
    "pk": "7b6b71c4-4ac4-4342-abef-ab97042d8e0c"
  },
  {
    "name": "LOWER SOUTH COAST SPCA",
    "telephone": "039 312 0962",
    "emergency_telephone": "083 222 6354",
    "address": "cnr Sea Slopes & Quarry Rd, Uvongo, Margate, 4270",
    "lat": -30.8397645861,
    "lon": 30.3720285319,
    "province": "KwaZulu-Natal",
    "website": "https://lscspca.org.za/",
    "pk": "3b923b5e-994a-4b41-a1fd-ed060e983f82"
  },
  {
    "name": "MAFIKENG SPCA",
    "telephone": "018 381 0374",
    "emergency_telephone": "079 018 9552",
    "address": "Old Cooke's lake entrance Moloporivier, Mahikeng, 2735",
    "lat": -25.8675444643,
    "lon": 25.6497234755,
    "province": "North West",
    "website": null,
    "pk": "c00fbb80-ec4d-47a0-83b9-d4019f5917d4"
  },
  {
    "name": "MIDDELBURG SPCA",
    "telephone": "013 246 1201",
    "emergency_telephone": "084 432 6278",
    "address": "41 Wicht St, Middelburg, 1050",
    "lat": -25.7786013458,
    "lon": 29.4809141947,
    "province": "Mpumalanga",
    "website": null,
    "pk": "cf127138-464e-4eb8-9c6e-7249cb52eef5"
  },
  {
    "name": "MIDRAND SPCA",
    "telephone": "011 265 9935",
    "emergency_telephone": "083 441 1564",
    "address": "6 Dale Rd, Glen Austin AH, Midrand, 1685",
    "lat": -25.9813229057,
    "lon": 28.1648381662,
    "province": "Gauteng",
    "website": "http://www.midrandspca.co.za/",
    "pk": "b6b96d10-c642-491a-9f76-e15a9046282d"
  },
  {
    "name": "MOKOPANE SPCA (POTGIETERSRUS)",
    "telephone": "015 491 3661",
    "emergency_telephone": "076 538 6291",
    "address": "Municipal grounds, 1 Zebediela Road, Mokopane, 0601",
    "lat": -24.1885320861,
    "lon": 29.0207915927,
    "province": "Limpopo",
    "website": null,
    "pk": "ef5bc46e-9c99-46bf-81f3-bf18ce3bef24"
  },
  {
    "name": "MOOI RIVER & DISTRICT SPCA",
    "telephone": "033 263 1526",
    "emergency_telephone": "083 385 0807",
    "address": "Mooi River, 3300",
    "lat": -29.2005897645,
    "lon": 29.9923149816,
    "province": "KwaZulu-Natal",
    "website": null,
    "pk": "c31edf76-7290-426e-afac-347275fdcba8"
  },
  {
    "name": "MTHATHA SPCA (UMTATA)",
    "telephone": "047 004 0014",
    "emergency_telephone": "083 759 0576",
    "address": "1 Eagle St, Umtata Central, Mthatha, 5100",
    "lat": -31.5869983246,
    "lon": 28.8001085673,
    "province": "Eastern Cape",
    "website": null,
    "pk": "c0cd28d8-5381-4ac6-a57d-9e13c8a826de"
  },
  {
    "name": "NELSPRUIT SPCA",
    "telephone": "013 753 3582",
    "emergency_telephone": "082 755 8687",
    "address": "6 Meidlinger St, Mbombela, 1200",
    "lat": -25.4616925261,
    "lon": 30.9766612578,
    "province": "Mpumalanga",
    "website": "http://www.spcanelspruit.co.za/",
    "pk": "5d08891a-41d7-4323-826c-28ee16fc8225"
  },
  {
    "name": "NEWCASTLE SPCA",
    "telephone": "081 258 0178",
    "emergency_telephone": null,
    "address": "Sampson Avenue, Barry Hertzog Park, Newcastle, 2945",
    "lat": -27.7432032014,
    "lon": 29.946280981,
    "province": "KwaZulu-Natal",
    "website": null,
    "pk": "28e58fcb-51c0-4b31-bf63-f76215e22679"
  },
  {
    "name": "NIGEL SPCA",
    "telephone": "084 485 7029",
    "emergency_telephone": "084 485 7020",
    "address": "Greater Nigel, Nigel, 1496",
    "lat": -26.3935808737,
    "lon": 28.4386796487,
    "province": "Gauteng",
    "website": null,
    "pk": "b9eea1f5-1848-49f1-bd11-760c91f48cb7"
  },
  {
    "name": "PAARL SPCA",
    "telephone": "021 863 2720",
    "emergency_telephone": null,
    "address": "9 Ben Barnard Estate, cnr Old Paarl & Klapmuts - Simondium Rd, Southern Paarl, Paarl, 7646",
    "lat": -33.7902556466,
    "lon": 18.9402115293,
    "province": "Western Cape",
    "website": "http://www.paarlspca.co.za/",
    "pk": "a568eddf-4c89-4df2-95e3-dec542d4d12e"
  },
  {
    "name": "PARYS SPCA",
    "telephone": "056 811 3671",
    "emergency_telephone": null,
    "address": "Abattoir St, Parys, 9585",
    "lat": -26.9076104694,
    "lon": 27.4654452409,
    "province": "Freestate",
    "website": null,
    "pk": "d6bb5aad-ca3b-4d07-9895-b26b02c1fbd5"
  },
  {
    "name": "PHALABORWA SPCA",
    "telephone": "015 781 2415",
    "emergency_telephone": "082 494 2147",
    "address": "1 Copper Rd, Phalaborwa, 1389",
    "lat": -23.9512433881,
    "lon": 31.1557001215,
    "province": "Limpopo",
    "website": null,
    "pk": "51b35c17-2c0d-4c2f-ba31-574632a4889b"
  },
  {
    "name": "PIETERMARITZBURG SPCA",
    "telephone": "033 386 9267",
    "emergency_telephone": null,
    "address": "235 Woodhouse Rd, Scottsville, Pietermaritzburg, 3201",
    "lat": -29.6042077282,
    "lon": 30.4126045842,
    "province": "KwaZulu-Natal",
    "website": null,
    "pk": "21712561-e48f-4f4c-aa6f-9336ce700a24"
  },
  {
    "name": "POLOKWANE SPCA (PIETERSBURG)",
    "telephone": "015 291 1088",
    "emergency_telephone": null,
    "address": "46, Lansdale, Roodepoort, Polokwane, 0700",
    "lat": -23.9602359628,
    "lon": 29.4470916056,
    "province": "Limpopo",
    "website": null,
    "pk": "526fa2f9-4d39-4161-8967-068f1fa87ad5"
  },
  {
    "name": "PORT ALFRED & NDLAMBE DISTRICT SPCA",
    "telephone": "046 624 1919 / 081 280 3178",
    "emergency_telephone": "082 676 8605",
    "address": "3510 Dickerson Dr, Port Alfred, 6170",
    "lat": -33.5831427731,
    "lon": 26.8899652569,
    "province": "Eastern Cape",
    "website": null,
    "pk": "34f70ab5-f9d4-46c0-baba-e20ccf54c2fb"
  },
  {
    "name": "RANDBURG SPCA",
    "telephone": "011 462 1610",
    "emergency_telephone": null,
    "address": "229 Northumberland Ave, Northriding, Randburg, 2162",
    "lat": -26.0473896941,
    "lon": 27.9533050565,
    "province": "Gauteng",
    "website": "http://www.spca-rbg.org.za/",
    "pk": "a7c6c894-aa83-4fdd-8dc2-512b425128b2"
  },
  {
    "name": "RANDWEST SPCA (Randfontein)",
    "telephone": "011 412 3114",
    "emergency_telephone": "078 911 0538",
    "address": "Randfontein Rd, Uitvalfontein 244-Iq, Randfontein, 1779",
    "lat": -26.1743431289,
    "lon": 27.7129025694,
    "province": "Gauteng",
    "website": null,
    "pk": "422fec7b-d235-47f9-b6fb-8e9790ec87e9"
  },
  {
    "name": "RICHARDS BAY SPCA",
    "telephone": "035 753 2086",
    "emergency_telephone": "073 551 4564",
    "address": "Bayview Boulevard, Meer En See, Richards Bay, 3901",
    "lat": -28.7873469958,
    "lon": 32.0871644392,
    "province": "KwaZulu-Natal",
    "website": null,
    "pk": "f385c257-cb4c-4593-8c6b-ef5a59771289"
  },
  {
    "name": "ROODEPOORT SPCA",
    "telephone": "011 672 0448",
    "emergency_telephone": "076 070 1400",
    "address": "Gauteng",
    "lat": -26.1848069259,
    "lon": 27.9291077198,
    "province": "Gauteng",
    "website": "http://www.spcaroodepoort.org.za/",
    "pk": "833506bb-2f21-48e9-afe6-f12b4be04141"
  },
  {
    "name": "RUSTENBURG SPCA",
    "telephone": "014 592 3181",
    "emergency_telephone": "072 933 7723",
    "address": "11 Escom St, Rustenburg, 2999",
    "lat": -25.6754170049,
    "lon": 27.2596671447,
    "province": "North West",
    "website": null,
    "pk": "2ae51091-d723-4ad2-8a28-7e3a3fa05c71"
  },
  {
    "name": "SANDTON SPCA",
    "telephone": "011 444 7730",
    "emergency_telephone": "082 460 2765",
    "address": "11 9th St, Marlboro Gardens, Marlboro, Sandton, 2146",
    "lat": -26.0943091806,
    "lon": 28.0878524092,
    "province": "Gauteng",
    "website": "http://www.sandtonspca.org.za/",
    "pk": "16db9057-21d2-4a32-bb35-8ebd304695ea"
  },
  {
    "name": "SPRINGS SPCA",
    "telephone": "082 668 5230",
    "emergency_telephone": "083 377 7029",
    "address": "Corner of Ermelo and Townsend Roads, Strubenvale, Springs, 1559",
    "lat": -26.2619053889,
    "lon": 28.4808505963,
    "province": "Gauteng",
    "website": null,
    "pk": "e8e1813a-15d7-4d88-8a27-19f88494083e"
  },
  {
    "name": "SWARTLAND & WEST COAST SPCA",
    "telephone": "022 492 2781",
    "emergency_telephone": "082 414 7153",
    "address": "551 Yzerfontein Road, Darling, 7345",
    "lat": -33.3706558954,
    "lon": 18.3742580222,
    "province": "Western Cape",
    "website": "http://www.swartlandwestcoastspca.co.za/",
    "pk": "34aa5868-659b-4824-8748-632a163dd140"
  },
  {
    "name": "SWELLENDAM SPCA",
    "telephone": "028 514 2083",
    "emergency_telephone": "084 737 1948",
    "address": "51 Bontebok St, Railton, Swellendam, 6740",
    "lat": -34.0385063515,
    "lon": 20.4415872545,
    "province": "Western Cape",
    "website": "http://spcaswellendam.co.za/",
    "pk": "4ea758c0-6bf1-4e99-b98c-51b97e800c29"
  },
  {
    "name": "TSHWANE SPCA (PRETORIA)",
    "telephone": "012 803 5219",
    "emergency_telephone": "083 453 3863",
    "address": "316 Petroleum St, Silverton, Pretoria, 0127",
    "lat": -25.7253156139,
    "lon": 28.3119561591,
    "province": "Gauteng",
    "website": "http://www.spcapta.org.za/",
    "pk": "e3fe8fca-182f-4563-a072-360f55eaab5a"
  },
  {
    "name": "Centurion",
    "telephone": "012 664 5644",
    "emergency_telephone": "082 807 5671",
    "address": "Kruger Ave, Lyttelton Manor, Centurion, 0157",
    "lat": -25.8486564012,
    "lon": 28.2227063381,
    "province": "Gauteng",
    "website": null,
    "pk": "ccf6573a-9092-40ce-b488-786a0bfb5f41"
  },
  {
    "name": "UITENHAGE & DISTRICT SPCA",
    "telephone": "041 992 3016 / 041 922 4528",
    "emergency_telephone": "082 905 4716",
    "address": "Schonland St, Cape Road Industrial, Kariega, 6021",
    "lat": -33.776861356,
    "lon": 25.3829304799,
    "province": "Eastern Cape",
    "website": "http://www.uitenhagespca.co.za/",
    "pk": "66ae3bbb-efe1-4812-81ab-a35bd9d67d4f"
  },
  {
    "name": "uMNGENI SPCA (Howick)",
    "telephone": "033 330 4557",
    "emergency_telephone": "082 567 8297",
    "address": "15 Campbell Rd, Howick, 3290",
    "lat": -29.4913406392,
    "lon": 30.231921899,
    "province": "KwaZulu-Natal",
    "website": null,
    "pk": "c47378f3-1bd4-4f94-8505-6e794dbb1d78"
  },
  {
    "name": "VEREENIGING & VANDERBIJLPARK SPCA",
    "telephone": "016 422 1505 / 016 455 1908",
    "emergency_telephone": "083 292 5862",
    "address": "66 General Smuts Rd, Duncanville, Vereeniging, 1939",
    "lat": -26.6610342958,
    "lon": 27.9309335296,
    "province": "Gauteng",
    "website": null,
    "pk": "a3f17a4c-d3ec-49bc-8725-a1e2737617fc"
  },
  {
    "name": "VIRGINIA SPCA",
    "telephone": "079 776 1153",
    "emergency_telephone": "076 114 4788",
    "address": "9430, Harmony, Virginia, 9430",
    "lat": -28.0835089283,
    "lon": 26.8474192363,
    "province": "Freestate",
    "website": null,
    "pk": "a83b2d13-482d-4dc1-bf68-02fbce7910d1"
  },
  {
    "name": "WELLINGTON SPCA",
    "telephone": "021 864 3726",
    "emergency_telephone": "082 905 9184",
    "address": "Interpace Street, Wellington, 7655",
    "lat": -33.6486930094,
    "lon": 18.9830343843,
    "province": "Western Cape",
    "website": null,
    "pk": "6ceb9c5f-53db-4f6e-a180-415f63f22f9a"
  },
  {
    "name": "WEST COAST SPCA (Branch of Swartland SPCA)",
    "telephone": "022 492 2781",
    "emergency_telephone": "082 414 7153",
    "address": "West Coast Peninsula",
    "lat": -32.9222871519,
    "lon": 18.0493160753,
    "province": "Western Cape",
    "website": null,
    "pk": "51e3ecbb-365d-44af-9c0e-81ca73ef5fca"
  },
  {
    "name": "WESTONARIA SPCA (Amalgamated with Randfontein SPCA)",
    "telephone": "011 412 3114",
    "emergency_telephone": "078 911 0538",
    "address": "Westonaria, 1779",
    "lat": -26.3107245072,
    "lon": 27.6470575385,
    "province": "Gauteng",
    "website": null,
    "pk": "b79d8375-5532-4d70-a008-69f3d5a162f8"
  },
  {
    "name": "WHITE RIVER SPCA",
    "telephone": "013 750 0240",
    "emergency_telephone": "082 706 1240",
    "address": "2 Tungsten Rd, White River, 1240",
    "lat": -25.3390484542,
    "lon": 31.0071307252,
    "province": "Mpumalanga",
    "website": null,
    "pk": "6e86c46e-adea-41a7-9c86-914675ad7fad"
  },
  {
    "name": "WINELANDS SPCA",
    "telephone": "023 615 2241",
    "emergency_telephone": "071 025 7805",
    "address": "537F+5R, Ashton, 6715",
    "lat": -33.8371538653,
    "lon": 20.0745943314,
    "province": "Western Cape",
    "website": null,
    "pk": "4a877fe8-8c61-4a5b-bd8f-067de1672030"
  },
  {
    "name": "WITBANK SPCA",
    "telephone": "013 650 2321",
    "emergency_telephone": "083 657 2421",
    "address": "12 Ermelo Ave, River View, eMalahleni, 1034",
    "lat": -25.8428296008,
    "lon": 29.2511136679,
    "province": "Mpumalanga",
    "website": "http://www.witbankspca.org.za/",
    "pk": "8f9f9e13-fcf4-4292-ba94-2ca77c4baf46"
  }
]